{"type":"FeatureCollection","features":[{"type": "Feature", "geometry": {"type": "Point", "coordinates": [2.3675729, 48.8805969]}, "properties": {"salle": "1", "nom": "Epicerie Musicale", "comptoir": 1.0, "arrondissement": 75010, "adresse": "55bis quai de Valmy 75010 Paris", "terrasse": "-", "maj": "2012-10-22", "lat_lon": [48.8805969, 2.3675729]}},{"type": "Feature", "geometry": {"type": "Point", "coordinates": [2.392644, 48.8490041]}, "properties": {"salle": "-", "nom": "Extra old caf\u00e9", "comptoir": 1.0, "arrondissement": 75011, "adresse": "307 fg saint Antoine 75011 Paris", "terrasse": "-", "maj": "2012-07-03", "lat_lon": [48.8490041, 2.392644]}},{"type": "Feature", "geometry": {"type": "Point", "coordinates": [2.3674724, 48.8626665]}, "properties": {"salle": "1", "nom": "Le Centenaire", "comptoir": 1.0, "arrondissement": 75011, "adresse": "104 rue amelot 75011 Paris", "terrasse": "-", "maj": "2012-10-22", "lat_lon": [48.8626665, 2.3674724]}},{"type": "Feature", "geometry": {"type": "Point", "coordinates": [2.3746356, 48.850096]}, "properties": {"salle": "-", "nom": "Assaporare Dix sur Dix", "comptoir": 1.0, "arrondissement": 75012, "adresse": "75, avenue Ledru-Rollin 75012 Paris", "terrasse": "-", "maj": "2012-06-27", "lat_lon": [48.850096, 2.3746356]}},{"type": "Feature", "geometry": {"type": "Point", "coordinates": [2.3783975, 48.8506488]}, "properties": {"salle": "-", "nom": "Le Chat bossu", "comptoir": 1.0, "arrondissement": 75012, "adresse": "126, rue du Faubourg Saint Antoine 75012 Paris", "terrasse": "-", "maj": "2012-09-10", "lat_lon": [48.8506488, 2.3783975]}},{"type": "Feature", "geometry": {"type": "Point", "coordinates": [2.3704605, 48.838514]}, "properties": {"salle": "-", "nom": "Le Kleemend's", "comptoir": 1.0, "arrondissement": 75013, "adresse": "34 avenue Pierre Mend\u00e8s-France 75013 Paris", "terrasse": "-", "maj": "2012-07-03", "lat_lon": [48.838514, 2.3704605]}},{"type": "Feature", "geometry": {"type": "Point", "coordinates": [2.3653929, 48.8294364]}, "properties": {"salle": "-", "nom": "Tamm Bara", "comptoir": 1.0, "arrondissement": 75013, "adresse": "7 rue Clisson 75013 Paris", "terrasse": "-", "maj": "2012-07-03", "lat_lon": [48.8294364, 2.3653929]}},{"type": "Feature", "geometry": {"type": "Point", "coordinates": [2.3253347, 48.8355233]}, "properties": {"salle": "-", "nom": "le Zango", "comptoir": 1.0, "arrondissement": 75014, "adresse": "58 rue Daguerre 75014 Paris", "terrasse": "-", "maj": "2012-06-27", "lat_lon": [48.8355233, 2.3253347]}},{"type": "Feature", "geometry": {"type": "Point", "coordinates": [2.2969045, 48.8397592]}, "properties": {"salle": "1", "nom": "Le caf\u00e9 des amis", "comptoir": 1.0, "arrondissement": 75015, "adresse": "125 rue Blomet 75015 Paris", "terrasse": "-", "maj": "2012-10-22", "lat_lon": [48.8397592, 2.2969045]}},{"type": "Feature", "geometry": {"type": "Point", "coordinates": [2.2924255, 48.8353891]}, "properties": {"salle": "-", "nom": "Le Parc Vaugirard", "comptoir": 1.0, "arrondissement": 75015, "adresse": "358 rue de Vaugirard 75015 Paris", "terrasse": "-", "maj": "2012-06-27", "lat_lon": [48.8353891, 2.2924255]}},{"type": "Feature", "geometry": {"type": "Point", "coordinates": [2.2982299, 48.8492732]}, "properties": {"salle": "-", "nom": "Le Zinc", "comptoir": 1.0, "arrondissement": 75015, "adresse": "61 avenue de la Motte Picquet 75015 Paris", "terrasse": "-", "maj": "2012-07-03", "lat_lon": [48.8492732, 2.2982299]}},{"type": "Feature", "geometry": {"type": "Point", "coordinates": [2.3250141, 48.8849458]}, "properties": {"salle": "-", "nom": "Caves populaires", "comptoir": 1.0, "arrondissement": 75017, "adresse": "22 rue des Dames 75017 Paris", "terrasse": "-", "maj": "2012-07-03", "lat_lon": [48.8849458, 2.3250141]}},{"type": "Feature", "geometry": {"type": "Point", "coordinates": [2.3390434, 48.8928535]}, "properties": {"salle": "1", "nom": "Au bon coin", "comptoir": 1.0, "arrondissement": 75018, "adresse": "49 rue des Cloys 75018 Paris", "terrasse": "1", "maj": "2012-10-18", "lat_lon": [48.8928535, 2.3390434]}},{"type": "Feature", "geometry": {"type": "Point", "coordinates": [2.3333864, 48.8919384]}, "properties": {"salle": "-", "nom": "Le Brio", "comptoir": 1.0, "arrondissement": 75018, "adresse": "216, rue Marcadet 75018 Paris", "terrasse": "-", "maj": "2012-07-03", "lat_lon": [48.8919384, 2.3333864]}},{"type": "Feature", "geometry": {"type": "Point", "coordinates": [2.3622647, 48.8900361]}, "properties": {"salle": "1", "nom": "Populettes", "comptoir": 1.0, "arrondissement": 75018, "adresse": "86 bis rue Riquet 75018 Paris", "terrasse": "-", "maj": "2012-10-22", "lat_lon": [48.8900361, 2.3622647]}},{"type": "Feature", "geometry": {"type": "Point", "coordinates": [2.3489649, 48.8637823]}, "properties": {"salle": "-", "nom": "Etienne", "comptoir": 1.0, "arrondissement": 75001, "adresse": "14 rue Turbigo, Paris 75002 Paris", "terrasse": "-", "maj": "2012-06-27", "lat_lon": [48.8637823, 2.3489649]}},{"type": "Feature", "geometry": {"type": "Point", "coordinates": [2.3410009, 48.8645346]}, "properties": {"salle": "-", "nom": "Le bistrot de Ma\u00eblle et Augustin", "comptoir": 1.0, "arrondissement": 75001, "adresse": "42 rue coquill\u00e8re 75001 Paris", "terrasse": "-", "maj": "2012-06-27", "lat_lon": [48.8645346, 2.3410009]}},{"type": "Feature", "geometry": {"type": "Point", "coordinates": [2.4080598, 48.8646193]}, "properties": {"salle": "-", "nom": "Au panini de la place", "comptoir": 1.0, "arrondissement": 75020, "adresse": "47 rue Belgrand 75020 Paris", "terrasse": "-", "maj": "2012-07-03", "lat_lon": [48.8646193, 2.4080598]}},{"type": "Feature", "geometry": {"type": "Point", "coordinates": [2.3371629, 48.8667281]}, "properties": {"salle": "1", "nom": "Chez Rutabaga", "comptoir": 1.0, "arrondissement": 75002, "adresse": "16 rue des Petits Champs 75002 Paris", "terrasse": "-", "maj": "2012-10-22", "lat_lon": [48.8667281, 2.3371629]}},{"type": "Feature", "geometry": {"type": "Point", "coordinates": [2.3383072, 48.8714039]}, "properties": {"salle": "-", "nom": "Le Biz", "comptoir": 1.0, "arrondissement": 75002, "adresse": "18 rue Favart 75002 Paris", "terrasse": "-", "maj": "2012-06-27", "lat_lon": [48.8714039, 2.3383072]}},{"type": "Feature", "geometry": {"type": "Point", "coordinates": [2.3605621, 48.8597859]}, "properties": {"salle": "-", "nom": "La Perle", "comptoir": 1.0, "arrondissement": 75003, "adresse": "78 rue vieille du temple 75003 Paris", "terrasse": "-", "maj": "2012-09-10", "lat_lon": [48.8597859, 2.3605621]}},{"type": "Feature", "geometry": {"type": "Point", "coordinates": [2.3556142, 48.8596446]}, "properties": {"salle": "-", "nom": "Le Felteu", "comptoir": 1.0, "arrondissement": 75004, "adresse": "1 rue Pecquay 75004 Paris", "terrasse": "-", "maj": "2012-06-27", "lat_lon": [48.8596446, 2.3556142]}},{"type": "Feature", "geometry": {"type": "Point", "coordinates": [2.3494701, 48.8431256]}, "properties": {"salle": "1", "nom": "La Montagne Sans Genevi\u00e8ve", "arrondissement": 75005, "adresse": "13 Rue du Pot de Fer 75005 Paris", "terrasse": "-", "maj": "2012-10-22", "lat_lon": [48.8431256, 2.3494701]}},{"type": "Feature", "geometry": {"type": "Point", "coordinates": [2.3279735, 48.8435717]}, "properties": {"salle": "-", "nom": "Les Vendangeurs", "comptoir": 1.0, "arrondissement": 75006, "adresse": "6/8 rue Stanislas 75006 Paris", "terrasse": "-", "maj": "2012-07-03", "lat_lon": [48.8435717, 2.3279735]}},{"type": "Feature", "geometry": {"type": "Point", "coordinates": [2.3149161, 48.8623784]}, "properties": {"salle": "-", "nom": "Caf\u00e9 dans l'aerogare Air France Invalides", "comptoir": 1.0, "arrondissement": 75007, "adresse": "2 rue Robert Esnault Pelterie 75007 Paris", "terrasse": "-", "maj": "2012-07-03", "lat_lon": [48.8623784, 2.3149161]}},{"type": "Feature", "geometry": {"type": "Point", "coordinates": [2.3203345, 48.859034]}, "properties": {"salle": "-", "nom": "Le Square", "comptoir": 1.0, "arrondissement": 75007, "adresse": "31 rue Saint-Dominique 75007 Paris", "terrasse": "-", "maj": "2012-07-03", "lat_lon": [48.859034, 2.3203345]}},{"type": "Feature", "geometry": {"type": "Point", "coordinates": [2.3153603, 48.8726788]}, "properties": {"salle": "1", "nom": "O'Breizh", "comptoir": 1.0, "arrondissement": 75008, "adresse": "27 rue de Penthi\u00e8vre 75008 Paris", "terrasse": "-", "maj": "2012-10-22", "lat_lon": [48.8726788, 2.3153603]}},{"type": "Feature", "geometry": {"type": "Point", "coordinates": [2.3461506, 48.8721138]}, "properties": {"salle": "-", "nom": "Le Dellac", "comptoir": 1.0, "arrondissement": 75009, "adresse": "14 rue Rougemont 75009 Paris", "terrasse": "-", "maj": "2012-06-27", "lat_lon": [48.8721138, 2.3461506]}},{"type": "Feature", "geometry": {"type": "Point", "coordinates": [2.3352841, 48.8752033]}, "properties": {"salle": "1", "nom": "Le chantereine", "comptoir": 1.0, "arrondissement": 75009, "adresse": "51 Rue Victoire 75009 Paris", "terrasse": "-", "maj": "2012-10-22", "lat_lon": [48.8752033, 2.3352841]}},{"type": "Feature", "geometry": {"type": "Point", "coordinates": [2.3407464, 48.8948308]}, "properties": {"salle": "-", "nom": "O q de poule", "comptoir": 1.0, "arrondissement": 75018, "adresse": "53 rue du ruisseau 75018 Paris", "terrasse": "1", "maj": "2013-08-14", "lat_lon": [48.8948308, 2.3407464]}},{"type": "Feature", "geometry": {"type": "Point", "coordinates": [2.3675729, 48.8805969]}, "properties": {"salle": "-", "nom": "La Marine", "comptoir": 1.0, "arrondissement": 75010, "adresse": "55 bis quai de valmy 75010 Paris", "terrasse": "-", "maj": "2013-08-14", "lat_lon": [48.8805969, 2.3675729]}},{"type": "Feature", "geometry": {"type": "Point", "coordinates": [2.3657668, 48.833305]}, "properties": {"salle": "-", "nom": "Le Dunois", "comptoir": 1.0, "arrondissement": 75013, "adresse": "77 rue Dunois 75013 Paris", "terrasse": "-", "maj": "2013-08-14", "lat_lon": [48.833305, 2.3657668]}},{"type": "Feature", "geometry": {"type": "Point", "coordinates": [2.3644886, 48.8715822]}, "properties": {"salle": "-", "nom": "Chez Prune", "comptoir": 1.0, "arrondissement": 75010, "adresse": "36 rue Beaurepaire 75010 Paris", "terrasse": "-", "maj": "2012-07-03", "lat_lon": [48.8715822, 2.3644886]}},{"type": "Feature", "geometry": {"type": "Point", "coordinates": [2.3546107, 48.8727264]}, "properties": {"salle": "-", "nom": "le chateau d'eau", "comptoir": 1.0, "arrondissement": 75010, "adresse": "67 rue du Ch\u00e2teau d'eau 75010 Paris", "terrasse": "-", "maj": "2012-07-03", "lat_lon": [48.8727264, 2.3546107]}},{"type": "Feature", "geometry": {"type": "Point", "coordinates": [2.3805149, 48.8575917]}, "properties": {"salle": "-", "nom": "L'ing\u00e9nu", "comptoir": 1.0, "arrondissement": 75011, "adresse": "184 bd Voltaire 75011 Paris", "terrasse": "-", "maj": "2012-06-27", "lat_lon": [48.8575917, 2.3805149]}},{"type": "Feature", "geometry": {"type": "Point", "coordinates": [2.3685194, 48.864245]}, "properties": {"salle": "-", "nom": "Panem", "comptoir": 0.9, "arrondissement": 75011, "adresse": "18 rue de Crussol 75011 Paris", "terrasse": "-", "maj": "2012-11-05", "lat_lon": [48.864245, 2.3685194]}},{"type": "Feature", "geometry": {"type": "Point", "coordinates": [2.3790427, 48.8453397]}, "properties": {"salle": "-", "nom": "L'empreinte", "comptoir": 1.0, "arrondissement": 75012, "adresse": "54, avenue Daumesnil 75012 Paris", "terrasse": "-", "maj": "2012-07-03", "lat_lon": [48.8453397, 2.3790427]}},{"type": "Feature", "geometry": {"type": "Point", "coordinates": [2.3342521, 48.833524]}, "properties": {"salle": "-", "nom": "L'\u00c9cir", "comptoir": 1.0, "arrondissement": 75014, "adresse": "59 Boulevard Saint-Jacques 75014 Paris", "terrasse": "-", "maj": "2012-09-10", "lat_lon": [48.833524, 2.3342521]}},{"type": "Feature", "geometry": {"type": "Point", "coordinates": [2.3337964, 48.8341513]}, "properties": {"salle": "-", "nom": "Denfert caf\u00e9", "comptoir": 1.0, "arrondissement": 75014, "adresse": "58 boulvevard Saint Jacques 75014 Paris", "terrasse": "-", "maj": "2012-09-10", "lat_lon": [48.8341513, 2.3337964]}},{"type": "Feature", "geometry": {"type": "Point", "coordinates": [2.2960597, 48.8372002]}, "properties": {"salle": "-", "nom": "Caf\u00e9 Dupont", "comptoir": 0.99, "arrondissement": 75015, "adresse": "198 rue de la Convention 75015 Paris", "terrasse": "-", "maj": "2012-11-05", "lat_lon": [48.8372002, 2.2960597]}},{"type": "Feature", "geometry": {"type": "Point", "coordinates": [2.2873067178384, 48.834081]}, "properties": {"salle": "-", "nom": "La Bauloise", "comptoir": 1.0, "arrondissement": 75015, "adresse": "36 rue du hameau 75015 Paris", "terrasse": "-", "maj": "2012-06-27", "lat_lon": [48.834081, 2.2873067178384]}},{"type": "Feature", "geometry": {"type": "Point", "coordinates": [2.3030556, 48.8416806]}, "properties": {"salle": "-", "nom": "Le General Beuret", "comptoir": 1.0, "arrondissement": 75015, "adresse": "9 Place du General Beuret 75015 Paris", "terrasse": "-", "maj": "2012-06-27", "lat_lon": [48.8416806, 2.3030556]}},{"type": "Feature", "geometry": {"type": "Point", "coordinates": [2.2738955, 48.8516716]}, "properties": {"salle": "-", "nom": "Caf\u00e9 antoine", "comptoir": 1.0, "arrondissement": 75016, "adresse": "17 rue Jean de la Fontaine 75016 Paris", "terrasse": "-", "maj": "2012-06-27", "lat_lon": [48.8516716, 2.2738955]}},{"type": "Feature", "geometry": {"type": "Point", "coordinates": [2.3250141, 48.8849458]}, "properties": {"salle": "1", "nom": "Les caves populaires", "comptoir": 1.0, "arrondissement": 75017, "adresse": "22 rue des Dames 75017 Paris", "terrasse": "-", "maj": "2012-10-22", "lat_lon": [48.8849458, 2.3250141]}},{"type": "Feature", "geometry": {"type": "Point", "coordinates": [2.3195817, 48.8856383]}, "properties": {"salle": "-", "nom": "Petits Freres des Pauvres", "comptoir": 0.45, "arrondissement": 75017, "adresse": "47 rue de Batignolles 75017 Paris", "terrasse": "-", "maj": "2012-11-05", "lat_lon": [48.8856383, 2.3195817]}},{"type": "Feature", "geometry": {"type": "Point", "coordinates": [2.3534752, 48.8875966]}, "properties": {"salle": "1", "nom": "Institut des Cultures d'Islam", "comptoir": 1.0, "arrondissement": 75018, "adresse": "19-23 rue L\u00e9on 75018 Paris", "terrasse": "-", "maj": "2012-10-22", "lat_lon": [48.8875966, 2.3534752]}},{"type": "Feature", "geometry": {"type": "Point", "coordinates": [2.3377492, 48.8846496]}, "properties": {"salle": "-", "nom": "Le Saint Jean", "comptoir": 1.0, "arrondissement": 75018, "adresse": "23 rue des abbesses 75018 Paris", "terrasse": "-", "maj": "2012-06-27", "lat_lon": [48.8846496, 2.3377492]}},{"type": "Feature", "geometry": {"type": "Point", "coordinates": [2.3950499, 48.8651248]}, "properties": {"salle": "-", "nom": "Caf\u00e9 Martin", "comptoir": 1.0, "arrondissement": 75001, "adresse": "2 place Martin Nadaud 75020 Paris", "terrasse": "-", "maj": "2012-06-27", "lat_lon": [48.8651248, 2.3950499]}},{"type": "Feature", "geometry": {"type": "Point", "coordinates": [2.2995104, 48.8802413]}, "properties": {"salle": "-", "nom": "Peperoni", "comptoir": 1.0, "arrondissement": 75001, "adresse": "83 avenue de Wagram 75001 Paris", "terrasse": "-", "maj": "2012-06-27", "lat_lon": [48.8802413, 2.2995104]}},{"type": "Feature", "geometry": {"type": "Point", "coordinates": [2.4016999, 48.8513186]}, "properties": {"salle": "1", "nom": "Les P\u00e8res Populaires", "comptoir": 1.0, "arrondissement": 75020, "adresse": "46 rue de Buzenval 75020 Paris", "terrasse": "-", "maj": "2012-10-18", "lat_lon": [48.8513186, 2.4016999]}},{"type": "Feature", "geometry": {"type": "Point", "coordinates": [2.3533347, 48.8680642]}, "properties": {"salle": "-", "nom": "Au cerceau d'or", "comptoir": 1.0, "arrondissement": 75002, "adresse": "129 boulevard sebastopol 75002 Paris", "terrasse": "-", "maj": "2012-06-27", "lat_lon": [48.8680642, 2.3533347]}},{"type": "Feature", "geometry": {"type": "Point", "coordinates": [2.33238383219415, 48.8704618]}, "properties": {"salle": "-", "nom": "L'Entracte", "comptoir": 1.0, "arrondissement": 75002, "adresse": "place de l'opera 75002 Paris", "terrasse": "-", "maj": "2012-09-10", "lat_lon": [48.8704618, 2.33238383219415]}},{"type": "Feature", "geometry": {"type": "Point", "coordinates": [2.3318004, 48.8681095]}, "properties": {"salle": "-", "nom": "Le Cap Bourbon", "comptoir": 1.0, "arrondissement": 75002, "adresse": "1 rue Louis le Grand 75002 Paris", "terrasse": "-", "maj": "2012-06-27", "lat_lon": [48.8681095, 2.3318004]}},{"type": "Feature", "geometry": {"type": "Point", "coordinates": [2.3602451, 48.8551687]}, "properties": {"salle": "-", "nom": "l'El\u00e9phant du nil", "comptoir": 1.0, "arrondissement": 75004, "adresse": "125 Rue Saint-Antoine 75004 Paris", "terrasse": "-", "maj": "2012-06-27", "lat_lon": [48.8551687, 2.3602451]}},{"type": "Feature", "geometry": {"type": "Point", "coordinates": [2.3497527, 48.8406236]}, "properties": {"salle": "1", "nom": "La Br\u00fblerie des Ternes", "comptoir": 1.0, "arrondissement": 75005, "adresse": "111 rue mouffetard 75005 Paris", "terrasse": "-", "maj": "2012-10-18", "lat_lon": [48.8406236, 2.3497527]}},{"type": "Feature", "geometry": {"type": "Point", "coordinates": [2.3454186, 48.8449129]}, "properties": {"salle": "-", "nom": "Waikiki", "comptoir": 1.0, "arrondissement": 75005, "adresse": "10 rue d\"Ulm 75005 Paris", "terrasse": "-", "maj": "2012-07-03", "lat_lon": [48.8449129, 2.3454186]}},{"type": "Feature", "geometry": {"type": "Point", "coordinates": [2.3045876, 48.8559992]}, "properties": {"salle": "-", "nom": "Le Bosquet", "comptoir": 1.0, "arrondissement": 75007, "adresse": "46 avenue Bosquet 75007 Paris", "terrasse": "-", "maj": "2012-09-10", "lat_lon": [48.8559992, 2.3045876]}},{"type": "Feature", "geometry": {"type": "Point", "coordinates": [2.304458, 48.8722649]}, "properties": {"salle": "-", "nom": "Le Fronton", "comptoir": 1.0, "arrondissement": 75008, "adresse": "63 rue de Ponthieu 75008 Paris", "terrasse": "-", "maj": "2012-06-27", "lat_lon": [48.8722649, 2.304458]}},{"type": "Feature", "geometry": {"type": "Point", "coordinates": [2.3046288, 48.8722111]}, "properties": {"salle": "-", "nom": "Les Arcades", "comptoir": 1.0, "arrondissement": 75008, "adresse": "61 rue de Ponthieu 75008 Paris", "terrasse": "-", "maj": "2012-07-03", "lat_lon": [48.8722111, 2.3046288]}},{"type": "Feature", "geometry": {"type": "Point", "coordinates": [2.339198, 48.8731654]}, "properties": {"salle": "1", "nom": "La Brocante", "comptoir": 1.0, "arrondissement": 75009, "adresse": "10 rue Rossini 75009 Paris", "terrasse": "-", "maj": "2012-10-22", "lat_lon": [48.8731654, 2.339198]}},{"type": "Feature", "geometry": {"type": "Point", "coordinates": [2.36395290312957, 48.86763035]}, "properties": {"salle": "-", "nom": "Le caf\u00e9 Monde et M\u00e9dias", "comptoir": 1.0, "arrondissement": 75003, "adresse": "Place de la R\u00e9publique 75003 Paris", "terrasse": "-", "maj": "2013-08-14", "lat_lon": [48.86763035, 2.36395290312957]}},{"type": "Feature", "geometry": {"type": "Point", "coordinates": [2.3577982, 48.8674734]}, "properties": {"salle": "-", "nom": "NoMa", "comptoir": 1.0, "arrondissement": 75003, "adresse": "39 rue Notre Dame de Nazareth 75003 Paris", "terrasse": "-", "maj": "2013-08-14", "lat_lon": [48.8674734, 2.3577982]}},{"type": "Feature", "geometry": {"type": "Point", "coordinates": [2.3665339, 48.8724168]}, "properties": {"salle": "-", "nom": "Caf\u00e9 Clochette", "comptoir": 1.0, "arrondissement": 75010, "adresse": "16 avenue Richerand 75010 Paris", "terrasse": "-", "maj": "2013-08-14", "lat_lon": [48.8724168, 2.3665339]}},{"type": "Feature", "geometry": {"type": "Point", "coordinates": [2.3547843, 48.8454475]}, "properties": {"salle": "-", "nom": "L'In\u00e9vitable", "comptoir": 1.0, "arrondissement": 75005, "adresse": "22 rue Linn\u00e9 75005 Paris", "terrasse": "-", "maj": "2013-08-14", "lat_lon": [48.8454475, 2.3547843]}},{"type": "Feature", "geometry": {"type": "Point", "coordinates": [2.3499506, 48.8806562]}, "properties": {"salle": "-", "nom": "La cantine de Zo\u00e9", "comptoir": 1.0, "arrondissement": 75010, "adresse": "136 rue du Faubourg poissonni\u00e8re 75010 Paris", "terrasse": "-", "maj": "2012-07-03", "lat_lon": [48.8806562, 2.3499506]}},{"type": "Feature", "geometry": {"type": "Point", "coordinates": [2.3799975, 48.8576406]}, "properties": {"salle": "-", "nom": "L'horizon", "comptoir": 1.0, "arrondissement": 75011, "adresse": "93, rue de la Roquette 75011 Paris", "terrasse": "-", "maj": "2012-07-03", "lat_lon": [48.8576406, 2.3799975]}},{"type": "Feature", "geometry": {"type": "Point", "coordinates": [2.3774636, 48.869225]}, "properties": {"salle": "-", "nom": "La Caravane", "comptoir": 0.9, "arrondissement": 75011, "adresse": "Rue de la Fontaine au Roi 75011 Paris", "terrasse": "-", "maj": "2012-11-05", "lat_lon": [48.869225, 2.3774636]}},{"type": "Feature", "geometry": {"type": "Point", "coordinates": [2.3820074, 48.8539222]}, "properties": {"salle": "-", "nom": "Pause Caf\u00e9", "comptoir": 1.0, "arrondissement": 75011, "adresse": "41 rue de Charonne 75011 Paris", "terrasse": "-", "maj": "2012-07-03", "lat_lon": [48.8539222, 2.3820074]}},{"type": "Feature", "geometry": {"type": "Point", "coordinates": [2.3788268, 48.8506288]}, "properties": {"salle": "1", "nom": "La Libert\u00e9", "comptoir": 1.0, "arrondissement": 75012, "adresse": "196 rue du faubourg saint-antoine 75012 Paris", "terrasse": "-", "maj": "2012-10-22", "lat_lon": [48.8506288, 2.3788268]}},{"type": "Feature", "geometry": {"type": "Point", "coordinates": [2.3470775, 48.837243]}, "properties": {"salle": "1", "nom": "Le Couvent", "comptoir": 1.0, "arrondissement": 75013, "adresse": "69 rue Broca 75013 Paris", "terrasse": "-", "maj": "2012-10-18", "lat_lon": [48.837243, 2.3470775]}},{"type": "Feature", "geometry": {"type": "Point", "coordinates": [2.3729249, 48.828487]}, "properties": {"salle": "1", "nom": "Le Caminito", "maj": "2012-10-22", "arrondissement": 75013, "adresse": "48 rue du Dessous des Berges 75013 Paris", "comptoir": 1.0, "lat_lon": [48.828487, 2.3729249]}},{"type": "Feature", "geometry": {"type": "Point", "coordinates": [2.3337986, 48.8297226]}, "properties": {"salle": "-", "nom": "Le petit club", "comptoir": 1.0, "arrondissement": 75014, "adresse": "55 rue de la tombe Issoire 75014 Paris", "terrasse": "-", "maj": "2012-07-03", "lat_lon": [48.8297226, 2.3337986]}},{"type": "Feature", "geometry": {"type": "Point", "coordinates": [2.3108499, 48.8424669]}, "properties": {"salle": "-", "nom": "le 1 cinq", "comptoir": 1.0, "arrondissement": 75015, "adresse": "172 rue de vaugirard 75015 Paris", "terrasse": "-", "maj": "2012-06-27", "lat_lon": [48.8424669, 2.3108499]}},{"type": "Feature", "geometry": {"type": "Point", "coordinates": [2.2893228, 48.8468067]}, "properties": {"salle": "-", "nom": "Le Germinal", "comptoir": 1.0, "arrondissement": 75015, "adresse": "95 avenue Emile Zola 75015 Paris", "terrasse": "-", "maj": "2012-06-27", "lat_lon": [48.8468067, 2.2893228]}},{"type": "Feature", "geometry": {"type": "Point", "coordinates": [2.3273644, 48.8836473]}, "properties": {"salle": "-", "nom": "Bagels & Coffee Corner", "comptoir": 1.0, "arrondissement": 75017, "adresse": "Place de Clichy 75017 Paris", "terrasse": "-", "maj": "2012-07-03", "lat_lon": [48.8836473, 2.3273644]}},{"type": "Feature", "geometry": {"type": "Point", "coordinates": [2.3162968, 48.8927948]}, "properties": {"salle": "-", "nom": "Pari's Caf\u00e9", "comptoir": 1.0, "arrondissement": 75017, "adresse": "174 avenue de Clichy 75017 Paris", "terrasse": "-", "maj": "2012-06-27", "lat_lon": [48.8927948, 2.3162968]}},{"type": "Feature", "geometry": {"type": "Point", "coordinates": [2.3180637, 48.88294]}, "properties": {"salle": "-", "nom": "Trois pi\u00e8ces cuisine", "comptoir": 1.0, "arrondissement": 75017, "adresse": "101 rue des dames 75017 Paris", "terrasse": "-", "maj": "2012-07-03", "lat_lon": [48.88294, 2.3180637]}},{"type": "Feature", "geometry": {"type": "Point", "coordinates": [2.3612628, 48.8906792]}, "properties": {"salle": "-", "nom": "L'Olive", "comptoir": 1.0, "arrondissement": 75018, "adresse": "8 rue L'Olive 75018 Paris", "terrasse": "-", "maj": "2012-06-27", "lat_lon": [48.8906792, 2.3612628]}},{"type": "Feature", "geometry": {"type": "Point", "coordinates": [2.346987, 48.892255]}, "properties": {"salle": "1", "nom": "Le Supercoin", "comptoir": 1.0, "arrondissement": 75018, "adresse": "3, rue Baudelique 75018 Paris", "terrasse": "-", "maj": "2012-10-22", "lat_lon": [48.892255, 2.346987]}},{"type": "Feature", "geometry": {"type": "Point", "coordinates": [2.3387484, 48.8662669]}, "properties": {"salle": "-", "nom": "Caf\u00e9 Pistache", "comptoir": 1.0, "arrondissement": 75001, "adresse": "9 rue des petits champs 75001 Paris", "terrasse": "-", "maj": "2012-06-27", "lat_lon": [48.8662669, 2.3387484]}},{"type": "Feature", "geometry": {"type": "Point", "coordinates": [2.265531, 48.8655009]}, "properties": {"salle": "1", "nom": "La chaumi\u00e8re gourmande", "arrondissement": 75016, "adresse": "Route de la Muette \u00e0 Neuilly\nClub hippique du Jardin d\u0092Acclimatation 75016 Paris", "terrasse": "-", "maj": "2012-07-03", "lat_lon": [48.8655009, 2.265531]}},{"type": "Feature", "geometry": {"type": "Point", "coordinates": [2.3377012, 48.8627103]}, "properties": {"salle": "-", "nom": "Ragueneau", "comptoir": 1.0, "arrondissement": 75001, "adresse": "202 rue Saint Honor\u00e9 75001 Paris", "terrasse": "-", "maj": "2012-11-05", "lat_lon": [48.8627103, 2.3377012]}},{"type": "Feature", "geometry": {"type": "Point", "coordinates": [2.336005, 48.8669982]}, "properties": {"salle": "-", "nom": "Br\u00fblerie San Jos\u00e9", "comptoir": 1.0, "arrondissement": 75002, "adresse": "30 rue des Petits-Champs 75002 Paris", "terrasse": "-", "maj": "2012-06-27", "lat_lon": [48.8669982, 2.336005]}},{"type": "Feature", "geometry": {"type": "Point", "coordinates": [2.3495752, 48.8626681]}, "properties": {"salle": "1", "nom": "La Cordonnerie", "comptoir": 1.0, "arrondissement": 75002, "adresse": "142 Rue Saint-Denis 75002 Paris 75002 Paris", "terrasse": "-", "maj": "2012-10-22", "lat_lon": [48.8626681, 2.3495752]}},{"type": "Feature", "geometry": {"type": "Point", "coordinates": [2.3359521, 48.8688329]}, "properties": {"salle": "1", "nom": "Le Petit Choiseul", "comptoir": 1.0, "arrondissement": 75002, "adresse": "23 rue saint augustin 75002 Paris", "terrasse": "-", "maj": "2012-10-22", "lat_lon": [48.8688329, 2.3359521]}},{"type": "Feature", "geometry": {"type": "Point", "coordinates": [2.3496332, 48.8577394]}, "properties": {"salle": "-", "nom": "Le Caf\u00e9 Livres", "comptoir": 1.0, "arrondissement": 75004, "adresse": "10 rue Saint Martin 75004 Paris", "terrasse": "-", "maj": "2012-09-10", "lat_lon": [48.8577394, 2.3496332]}},{"type": "Feature", "geometry": {"type": "Point", "coordinates": [2.3472725, 48.8396911]}, "properties": {"salle": "-", "nom": "Le Caf\u00e9 d'avant", "comptoir": 1.0, "arrondissement": 75005, "adresse": "35 rue Claude Bernard 75005 Paris", "terrasse": "-", "maj": "2012-09-10", "lat_lon": [48.8396911, 2.3472725]}},{"type": "Feature", "geometry": {"type": "Point", "coordinates": [2.338676, 48.8520876]}, "properties": {"salle": "-", "nom": "L'avant comptoir", "comptoir": 1.0, "arrondissement": 75006, "adresse": "3 carrefour de l'Od\u00e9on 75006 Paris", "terrasse": "-", "maj": "2012-07-03", "lat_lon": [48.8520876, 2.338676]}},{"type": "Feature", "geometry": {"type": "Point", "coordinates": [2.3304004, 48.8442315]}, "properties": {"salle": "-", "nom": "Le Lucernaire", "comptoir": 1.0, "arrondissement": 75006, "adresse": "53 rue Notre-Dame des Champs 75006 Paris", "terrasse": "-", "maj": "2012-09-10", "lat_lon": [48.8442315, 2.3304004]}},{"type": "Feature", "geometry": {"type": "Point", "coordinates": [2.3064477, 48.8595534]}, "properties": {"salle": "-", "nom": "Le Malar", "comptoir": 1.0, "arrondissement": 75007, "adresse": "88 rue Saint-Dominique 75007 Paris", "terrasse": "-", "maj": "2012-07-03", "lat_lon": [48.8595534, 2.3064477]}},{"type": "Feature", "geometry": {"type": "Point", "coordinates": [2.3087955, 48.8709919]}, "properties": {"salle": "1", "nom": "L'Angle", "comptoir": 1.0, "arrondissement": 75008, "adresse": "28 rue de Ponthieu 75008 Paris", "terrasse": "-", "maj": "2012-10-22", "lat_lon": [48.8709919, 2.3087955]}},{"type": "Feature", "geometry": {"type": "Point", "coordinates": [2.3321008, 48.8775907]}, "properties": {"salle": "-", "nom": "Le Brigadier", "comptoir": 1.0, "arrondissement": 75009, "adresse": "12 rue Blanche 75009 Paris", "terrasse": "-", "maj": "2012-09-10", "lat_lon": [48.8775907, 2.3321008]}},{"type": "Feature", "geometry": {"type": "Point", "coordinates": [2.3970254, 48.8701978]}, "properties": {"salle": "-", "nom": "Le Zazabar", "comptoir": 1.0, "arrondissement": 75020, "adresse": "116 Rue de M\u00e9nilmontant 75020 Paris", "terrasse": "-", "maj": "2013-08-14", "lat_lon": [48.8701978, 2.3970254]}},{"type": "Feature", "geometry": {"type": "Point", "coordinates": [2.36735, 48.8605871]}, "properties": {"salle": "-", "nom": "La cantoche de Paname", "comptoir": 0.9, "arrondissement": 75011, "adresse": "40 Boulevard Beaumarchais 75011 Paris", "terrasse": "-", "maj": "2013-08-14", "lat_lon": [48.8605871, 2.36735]}},{"type": "Feature", "geometry": {"type": "Point", "coordinates": [2.3664087, 48.8727489]}, "properties": {"salle": "-", "nom": "American Kitchen", "comptoir": 1.0, "arrondissement": 75010, "adresse": "49 rue bichat 75010 Paris", "terrasse": "-", "maj": "2013-08-14", "lat_lon": [48.8727489, 2.3664087]}},{"type": "Feature", "geometry": {"type": "Point", "coordinates": [2.3500329, 48.8646687]}, "properties": {"salle": "-", "nom": "Le Pas Sage", "comptoir": 1.0, "arrondissement": 75002, "adresse": "1 Passage du Grand Cerf 75002 Paris", "terrasse": "-", "maj": "2013-08-14", "lat_lon": [48.8646687, 2.3500329]}},{"type": "Feature", "geometry": {"type": "Point", "coordinates": [2.3613823, 48.8731707]}, "properties": {"salle": "-", "nom": "Chez Fafa", "comptoir": 1.0, "arrondissement": 75010, "adresse": "44 rue Vinaigriers 75010 Paris", "terrasse": "-", "maj": "2012-07-03", "lat_lon": [48.8731707, 2.3613823]}},{"type": "Feature", "geometry": {"type": "Point", "coordinates": [2.3840854, 48.8508323]}, "properties": {"salle": "-", "nom": "En attendant l'or", "comptoir": 1.0, "arrondissement": 75011, "adresse": "3 rue Faidherbe 75011 Paris", "terrasse": "-", "maj": "2012-06-27", "lat_lon": [48.8508323, 2.3840854]}},{"type": "Feature", "geometry": {"type": "Point", "coordinates": [2.3794671, 48.8591443]}, "properties": {"salle": "-", "nom": "Le Plein soleil", "comptoir": 1.0, "arrondissement": 75011, "adresse": "90 avenue Parmentier 75011 Paris", "terrasse": "-", "maj": "2012-07-03", "lat_lon": [48.8591443, 2.3794671]}},{"type": "Feature", "geometry": {"type": "Point", "coordinates": [2.3988896, 48.8351499]}, "properties": {"salle": "-", "nom": "Au pays de Vannes", "comptoir": 1.0, "arrondissement": 75012, "adresse": "34 bis rue de Wattignies 75012 Paris", "terrasse": "-", "maj": "2012-06-27", "lat_lon": [48.8351499, 2.3988896]}},{"type": "Feature", "geometry": {"type": "Point", "coordinates": [2.3732383, 48.8519278]}, "properties": {"salle": "-", "nom": "Bistrot Saint-Antoine", "comptoir": 1.0, "arrondissement": 75012, "adresse": "58 rue du Fbg Saint-Antoine 75012 Paris", "terrasse": "-", "maj": "2012-06-27", "lat_lon": [48.8519278, 2.3732383]}},{"type": "Feature", "geometry": {"type": "Point", "coordinates": [2.3800398, 48.8465821]}, "properties": {"salle": "-", "nom": "Le Killy Jen", "comptoir": 1.0, "arrondissement": 75012, "adresse": "28 bis boulevard Diderot 75012 Paris", "terrasse": "-", "maj": "2012-06-27", "lat_lon": [48.8465821, 2.3800398]}},{"type": "Feature", "geometry": {"type": "Point", "coordinates": [2.3283538, 48.8331593]}, "properties": {"salle": "-", "nom": "Au Vin Des Rues", "comptoir": 1.0, "arrondissement": 75014, "adresse": "21 rue Boulard 75014 Paris", "terrasse": "-", "maj": "2012-06-27", "lat_lon": [48.8331593, 2.3283538]}},{"type": "Feature", "geometry": {"type": "Point", "coordinates": [2.32099, 48.8275941]}, "properties": {"salle": "-", "nom": "maison du vin", "comptoir": 1.0, "arrondissement": 75014, "adresse": "52 rue des plantes 75014 Paris", "terrasse": "-", "maj": "2012-06-27", "lat_lon": [48.8275941, 2.32099]}},{"type": "Feature", "geometry": {"type": "Point", "coordinates": [2.2825972, 48.8513483]}, "properties": {"salle": "-", "nom": "Le Comptoir", "comptoir": 1.0, "arrondissement": 75015, "adresse": "354 bis rue Vaugirard 75015 Paris", "terrasse": "-", "maj": "2012-06-27", "lat_lon": [48.8513483, 2.2825972]}},{"type": "Feature", "geometry": {"type": "Point", "coordinates": [2.2982299, 48.8492732]}, "properties": {"salle": "-", "nom": "Le Piquet", "comptoir": 1.0, "arrondissement": 75015, "adresse": "48 avenue de la Motte Picquet 75015 Paris", "terrasse": "-", "maj": "2012-06-27", "lat_lon": [48.8492732, 2.2982299]}},{"type": "Feature", "geometry": {"type": "Point", "coordinates": [2.3031959, 48.8428643]}, "properties": {"salle": "-", "nom": "Les Artisans", "comptoir": 1.0, "arrondissement": 75015, "adresse": "106 rue Lecourbe 75015 Paris", "terrasse": "-", "maj": "2012-06-27", "lat_lon": [48.8428643, 2.3031959]}},{"type": "Feature", "geometry": {"type": "Point", "coordinates": [2.3195392, 48.8889861]}, "properties": {"salle": "1", "nom": "Le BB (Bouchon des Batignolles)", "comptoir": 1.0, "arrondissement": 75017, "adresse": "2 rue Lemercier 75017 Paris", "terrasse": "-", "maj": "2012-10-22", "lat_lon": [48.8889861, 2.3195392]}},{"type": "Feature", "geometry": {"type": "Point", "coordinates": [2.3450892, 48.8864157]}, "properties": {"salle": "1", "nom": "Botak cafe", "comptoir": 1.0, "arrondissement": 75018, "adresse": "1 rue Paul albert 75018 Paris", "terrasse": "1", "maj": "2012-07-03", "lat_lon": [48.8864157, 2.3450892]}},{"type": "Feature", "geometry": {"type": "Point", "coordinates": [2.3737144, 48.8828789]}, "properties": {"salle": "-", "nom": "Le Chaumontois", "comptoir": 1.0, "arrondissement": 75018, "adresse": "12 rue Armand Carrel 75018 Paris", "terrasse": "-", "maj": "2012-07-03", "lat_lon": [48.8828789, 2.3737144]}},{"type": "Feature", "properties": {"salle": "1", "nom": "Le petit Bretonneau", "comptoir": 1.0, "arrondissement": 75018, "adresse": "Le petit Bretonneau - \u00e0 l'int\u00e9rieur de l'H\u00f4pital 75018 Paris", "terrasse": "-", "maj": "2012-10-22"}},{"type": "Feature", "geometry": {"type": "Point", "coordinates": [2.3853638, 48.8779154]}, "properties": {"salle": "-", "nom": "Le bar Fleuri", "comptoir": 1.0, "arrondissement": 75019, "adresse": "1 rue du Plateau 75019 Paris", "terrasse": "-", "maj": "2012-07-03", "lat_lon": [48.8779154, 2.3853638]}},{"type": "Feature", "geometry": {"type": "Point", "coordinates": [2.3377012, 48.8627103]}, "properties": {"salle": "-", "nom": "Le Ragueneau", "comptoir": 1.0, "arrondissement": 75001, "adresse": "202 rue Saint-Honor\u00e9 75001 Paris", "terrasse": "-", "maj": "2012-06-27", "lat_lon": [48.8627103, 2.3377012]}},{"type": "Feature", "geometry": {"type": "Point", "coordinates": [2.3970254, 48.8701978]}, "properties": {"salle": "-", "nom": "Chez Luna", "comptoir": 1.0, "arrondissement": 75020, "adresse": "108 rue de M\u00e9nilmontant 75020 Paris", "terrasse": "-", "maj": "2012-09-10", "lat_lon": [48.8701978, 2.3970254]}},{"type": "Feature", "geometry": {"type": "Point", "coordinates": [2.3425335, 48.8698]}, "properties": {"salle": "-", "nom": "D\u00e9d\u00e9 la frite", "comptoir": 1.0, "arrondissement": 75002, "adresse": "52 rue Notre-Dame des Victoires 75002 Paris", "terrasse": "-", "maj": "2012-06-27", "lat_lon": [48.8698, 2.3425335]}},{"type": "Feature", "geometry": {"type": "Point", "coordinates": [2.3436027, 48.8679433]}, "properties": {"salle": "-", "nom": "Le Caf\u00e9 frapp\u00e9", "comptoir": 1.0, "arrondissement": 75002, "adresse": "95 rue Montmartre 75002 Paris", "terrasse": "-", "maj": "2012-09-10", "lat_lon": [48.8679433, 2.3436027]}},{"type": "Feature", "geometry": {"type": "Point", "coordinates": [2.3626683, 48.8587285]}, "properties": {"salle": "-", "nom": "Le S\u00e9vign\u00e9", "comptoir": 1.0, "arrondissement": 75003, "adresse": "15 rue du Parc Royal 75003 Paris", "terrasse": "-", "maj": "2012-09-10", "lat_lon": [48.8587285, 2.3626683]}},{"type": "Feature", "geometry": {"type": "Point", "coordinates": [2.3497527, 48.8406236]}, "properties": {"salle": "-", "nom": "La Br\u00fblerie des Ternes", "comptoir": 1.0, "arrondissement": 75005, "adresse": "111 rue Mouffetard 75005 Paris", "terrasse": "-", "maj": "2012-11-05", "lat_lon": [48.8406236, 2.3497527]}},{"type": "Feature", "geometry": {"type": "Point", "coordinates": [2.3545037, 48.8493014]}, "properties": {"salle": "-", "nom": "Cardinal Saint-Germain", "comptoir": 1.0, "arrondissement": 75005, "adresse": "11 boulevard Saint-Germain 75005 Paris", "terrasse": "-", "maj": "2012-06-27", "lat_lon": [48.8493014, 2.3545037]}},{"type": "Feature", "geometry": {"type": "Point", "coordinates": [2.3495852, 48.8450583]}, "properties": {"salle": "-", "nom": "Le Descartes", "comptoir": 1.0, "arrondissement": 75005, "adresse": "1 rue Thouin 75005 Paris", "terrasse": "-", "maj": "2012-09-10", "lat_lon": [48.8450583, 2.3495852]}},{"type": "Feature", "geometry": {"type": "Point", "coordinates": [2.3056389, 48.8576572]}, "properties": {"salle": "-", "nom": "Cafe de grenelle", "comptoir": 1.0, "arrondissement": 75007, "adresse": "188 rue de Grenelle 75007 Paris", "terrasse": "-", "maj": "2012-09-10", "lat_lon": [48.8576572, 2.3056389]}},{"type": "Feature", "geometry": {"type": "Point", "coordinates": [2.3159991, 48.8717999]}, "properties": {"salle": "-", "nom": "Caf\u00e9 beauveau", "comptoir": 1.0, "arrondissement": 75008, "adresse": "9 rue de Miromesnil 75008 Paris", "terrasse": "-", "maj": "2012-06-27", "lat_lon": [48.8717999, 2.3159991]}},{"type": "Feature", "geometry": {"type": "Point", "coordinates": [2.3352841, 48.8752033]}, "properties": {"salle": "-", "nom": "Caf\u00e9 Zen", "comptoir": 1.0, "arrondissement": 75009, "adresse": "46 rue Victoire 75009 Paris", "terrasse": "-", "maj": "2012-11-05", "lat_lon": [48.8752033, 2.3352841]}},{"type": "Feature", "geometry": {"type": "Point", "coordinates": [2.3329602, 48.8752166]}, "properties": {"salle": "-", "nom": "Le relais de la victoire", "comptoir": 1.0, "arrondissement": 75009, "adresse": "73 rue de la Victoire 75009 Paris", "terrasse": "-", "maj": "2012-09-10", "lat_lon": [48.8752166, 2.3329602]}},{"type": "Feature", "geometry": {"type": "Point", "coordinates": [2.3235382, 48.8541218]}, "properties": {"salle": "-", "nom": "Caf\u00e9 Varenne", "comptoir": 1.0, "arrondissement": 75007, "adresse": "36 rue de Varenne 75007 Paris", "terrasse": "-", "maj": "2013-08-13", "lat_lon": [48.8541218, 2.3235382]}},{"type": "Feature", "geometry": {"type": "Point", "coordinates": [2.3858703, 48.8715903]}, "properties": {"salle": "-", "nom": "O'Paris", "comptoir": 1.0, "arrondissement": 75020, "adresse": "1 Rue des Envierges 75020 Paris", "terrasse": "-", "maj": "2013-08-14", "lat_lon": [48.8715903, 2.3858703]}},{"type": "Feature", "geometry": {"type": "Point", "coordinates": [2.35516, 48.8725058]}, "properties": {"salle": "-", "nom": "Brasserie le Morvan", "comptoir": 1.0, "arrondissement": 75010, "adresse": "61 rue du ch\u00e2teau d'eau 75010 Paris", "terrasse": "-", "maj": "2013-08-14", "lat_lon": [48.8725058, 2.35516]}},{"type": "Feature", "geometry": {"type": "Point", "coordinates": [2.3951111, 48.8553314]}, "properties": {"salle": "-", "nom": "Le Saint Ren\u00e9", "comptoir": 1.0, "arrondissement": 75020, "adresse": "148 Boulevard de Charonne 75020 Paris", "terrasse": "-", "maj": "2013-08-14", "lat_lon": [48.8553314, 2.3951111]}},{"type": "Feature", "geometry": {"type": "Point", "coordinates": [2.3495568, 48.8954593]}, "properties": {"salle": "-", "nom": "La Renaissance", "comptoir": 1.0, "arrondissement": 75018, "adresse": "112 Rue Championnet 75018 Paris", "terrasse": "-", "maj": "2013-08-14", "lat_lon": [48.8954593, 2.3495568]}},{"type": "Feature", "geometry": {"type": "Point", "coordinates": [2.3800398, 48.8465821]}, "properties": {"salle": "-", "nom": "Aux cadrans", "comptoir": 1.0, "arrondissement": 75012, "adresse": "21 ter boulevard Diderot 75012 Paris", "terrasse": "-", "maj": "2012-06-27", "lat_lon": [48.8465821, 2.3800398]}},{"type": "Feature", "geometry": {"type": "Point", "coordinates": [2.3788268, 48.8506288]}, "properties": {"salle": "-", "nom": "Caf\u00e9 Pierre", "comptoir": 1.0, "arrondissement": 75012, "adresse": "202 rue du faubourg st antoine 75012 Paris", "terrasse": "-", "maj": "2012-07-03", "lat_lon": [48.8506288, 2.3788268]}},{"type": "Feature", "geometry": {"type": "Point", "coordinates": [2.3599416, 48.8263926]}, "properties": {"salle": "-", "nom": "L'\u00e2ge d'or", "comptoir": 1.0, "arrondissement": 75013, "adresse": "26 rue du Docteur Magnan 75013 Paris", "terrasse": "-", "maj": "2012-07-03", "lat_lon": [48.8263926, 2.3599416]}},{"type": "Feature", "geometry": {"type": "Point", "coordinates": [2.3223627, 48.8259048]}, "properties": {"salle": "-", "nom": "Caprice caf\u00e9", "comptoir": 1.0, "arrondissement": 75014, "adresse": "12 avenue Jean Moulin 75014 Paris", "terrasse": "-", "maj": "2012-07-03", "lat_lon": [48.8259048, 2.3223627]}},{"type": "Feature", "geometry": {"type": "Point", "coordinates": [2.3011831, 48.8381374]}, "properties": {"salle": "-", "nom": "bistrot les timbr\u00e9s", "comptoir": 1.0, "arrondissement": 75015, "adresse": "14 rue d'alleray 75015 Paris", "terrasse": "-", "maj": "2012-06-27", "lat_lon": [48.8381374, 2.3011831]}},{"type": "Feature", "geometry": {"type": "Point", "coordinates": [2.2784139, 48.8358292]}, "properties": {"salle": "-", "nom": "Caf\u00e9 Victor", "comptoir": 1.0, "arrondissement": 75015, "adresse": "10 boulevard Victor 75015 Paris", "terrasse": "-", "maj": "2012-07-03", "lat_lon": [48.8358292, 2.2784139]}},{"type": "Feature", "geometry": {"type": "Point", "coordinates": [2.3070058, 48.841628]}, "properties": {"salle": "1", "nom": "Le drapeau de la fidelit\u00e9", "comptoir": 1.0, "arrondissement": 75015, "adresse": "21 rue Copreaux 75015 Paris", "terrasse": "-", "maj": "2012-10-22", "lat_lon": [48.841628, 2.3070058]}},{"type": "Feature", "geometry": {"type": "Point", "coordinates": [2.3147903, 48.840994]}, "properties": {"salle": "-", "nom": "les montparnos", "comptoir": 1.0, "arrondissement": 75015, "adresse": "65 boulevard Pasteur 75015 Paris", "terrasse": "-", "maj": "2012-06-27", "lat_lon": [48.840994, 2.3147903]}},{"type": "Feature", "geometry": {"type": "Point", "coordinates": [2.2980441, 48.884369]}, "properties": {"salle": "-", "nom": "Le Village", "comptoir": 1.0, "arrondissement": 75017, "adresse": "182 rue de Courcelles 75017 Paris", "terrasse": "-", "maj": "2012-07-03", "lat_lon": [48.884369, 2.2980441]}},{"type": "Feature", "geometry": {"type": "Point", "coordinates": [2.3633639, 48.8919413]}, "properties": {"salle": "1", "nom": "Canopy Caf\u00e9 associatif", "comptoir": 1.0, "arrondissement": 75018, "adresse": "19 rue Pajol 75018 Paris", "terrasse": "-", "maj": "2012-10-22", "lat_lon": [48.8919413, 2.3633639]}},{"type": "Feature", "geometry": {"type": "Point", "coordinates": [2.3465403, 48.886539]}, "properties": {"salle": "1", "nom": "Le M\u00fcller", "comptoir": 1.0, "arrondissement": 75018, "adresse": "11 rue Feutrier 75018 Paris", "terrasse": "-", "maj": "2012-10-22", "lat_lon": [48.886539, 2.3465403]}},{"type": "Feature", "geometry": {"type": "Point", "coordinates": [2.3333276, 48.8906973]}, "properties": {"salle": "-", "nom": "Le refuge", "comptoir": 1.0, "arrondissement": 75018, "adresse": "72 rue lamarck 75018 Paris", "terrasse": "-", "maj": "2012-06-27", "lat_lon": [48.8906973, 2.3333276]}},{"type": "Feature", "geometry": {"type": "Point", "coordinates": [2.3745518, 48.8866706]}, "properties": {"salle": "-", "nom": "Le Bellerive", "comptoir": 1.0, "arrondissement": 75019, "adresse": "71 quai de Seine 75019 Paris", "terrasse": "-", "maj": "2012-06-27", "lat_lon": [48.8866706, 2.3745518]}},{"type": "Feature", "geometry": {"type": "Point", "coordinates": [2.3464765, 48.8575258]}, "properties": {"salle": "-", "nom": "Le Reynou", "comptoir": 1.0, "arrondissement": 75001, "adresse": "2 bis quai de la m\u00e9gisserie 75001 Paris", "terrasse": "-", "maj": "2012-06-27", "lat_lon": [48.8575258, 2.3464765]}},{"type": "Feature", "geometry": {"type": "Point", "coordinates": [2.3877502, 48.8745379]}, "properties": {"salle": "-", "nom": "La Cagnotte", "comptoir": 1.0, "arrondissement": 75020, "adresse": "13 Rue Jean-Baptiste Dumay 75019 Paris", "terrasse": "-", "maj": "2012-06-27", "lat_lon": [48.8745379, 2.3877502]}},{"type": "Feature", "geometry": {"type": "Point", "coordinates": [2.3999675, 48.8488784]}, "properties": {"salle": "-", "nom": "Melting Pot", "comptoir": 1.0, "arrondissement": 75020, "adresse": "3 rue de Lagny 75020 Paris", "terrasse": "-", "maj": "2012-06-27", "lat_lon": [48.8488784, 2.3999675]}},{"type": "Feature", "geometry": {"type": "Point", "coordinates": [2.3469273, 48.8649681]}, "properties": {"salle": "1", "nom": "Dr\u00f4le d'endroit Montorgueil", "comptoir": 1.0, "arrondissement": 75002, "adresse": "58 rue de Montorgueil 75002 Paris", "terrasse": "-", "maj": "2012-10-22", "lat_lon": [48.8649681, 2.3469273]}},{"type": "Feature", "geometry": {"type": "Point", "coordinates": [2.3687054, 48.8549497]}, "properties": {"salle": "-", "nom": "Chez Oscar", "comptoir": 1.0, "arrondissement": 75004, "adresse": "11/13 boulevard Beaumarchais 75004 Paris", "terrasse": "-", "maj": "2012-06-27", "lat_lon": [48.8549497, 2.3687054]}},{"type": "Feature", "geometry": {"type": "Point", "coordinates": [2.3499331, 48.8386437]}, "properties": {"salle": "-", "nom": "Caf\u00e9 Lea", "comptoir": 1.0, "arrondissement": 75005, "adresse": "5 rue Claude Bernard 75005 Paris", "terrasse": "-", "maj": "2012-06-27", "lat_lon": [48.8386437, 2.3499331]}},{"type": "Feature", "geometry": {"type": "Point", "coordinates": [2.3510102, 48.8415359]}, "properties": {"salle": "1", "nom": "Invitez vous chez nous", "comptoir": 1.0, "arrondissement": 75005, "adresse": "7 rue Ep\u00e9e de Bois 75005 Paris", "terrasse": "-", "maj": "2012-10-22", "lat_lon": [48.8415359, 2.3510102]}},{"type": "Feature", "geometry": {"type": "Point", "coordinates": [2.3495692, 48.8410997]}, "properties": {"salle": "-", "nom": "Le Tournebride", "comptoir": 1.0, "arrondissement": 75005, "adresse": "104 rue Mouffetard 75005 Paris", "terrasse": "-", "maj": "2012-06-27", "lat_lon": [48.8410997, 2.3495692]}},{"type": "Feature", "geometry": {"type": "Point", "coordinates": [2.3235382, 48.8541218]}, "properties": {"salle": "-", "nom": "Caf\u00e9 Varenne", "comptoir": 1.0, "arrondissement": 75007, "adresse": "36 rue de Varenne 75007 Paris", "terrasse": "-", "maj": "2012-06-27", "lat_lon": [48.8541218, 2.3235382]}},{"type": "Feature", "geometry": {"type": "Point", "coordinates": [2.3081805, 48.8774286]}, "properties": {"salle": "-", "nom": "Caf\u00e9 de la Mairie (du VIII)", "comptoir": 1.0, "arrondissement": 75008, "adresse": "rue de Lisbonne 75008 Paris", "terrasse": "-", "maj": "2012-06-27", "lat_lon": [48.8774286, 2.3081805]}},{"type": "Feature", "geometry": {"type": "Point", "coordinates": [2.3123244, 48.8753127]}, "properties": {"salle": "-", "nom": "Le Relais Haussmann", "comptoir": 1.0, "arrondissement": 75008, "adresse": "146, boulevard Haussmann 75008 Paris", "terrasse": "-", "maj": "2012-07-03", "lat_lon": [48.8753127, 2.3123244]}},{"type": "Feature", "geometry": {"type": "Point", "coordinates": [2.348657, 48.876542]}, "properties": {"salle": "-", "nom": "L'anjou", "comptoir": 1.0, "arrondissement": 75009, "adresse": "1 rue de Montholon 75009 Paris", "terrasse": "-", "maj": "2012-07-03", "lat_lon": [48.876542, 2.348657]}},{"type": "Feature", "geometry": {"type": "Point", "coordinates": [2.3235536, 48.8396528]}, "properties": {"salle": "-", "nom": "La Brasserie Gait\u00e9", "arrondissement": 75014, "adresse": "3 rue de la Gait\u00e9 75014 Paris", "terrasse": "1", "maj": "2013-08-13", "lat_lon": [48.8396528, 2.3235536]}},{"type": "Feature", "geometry": {"type": "Point", "coordinates": [2.3526047, 48.8507246]}, "properties": {"salle": "-", "nom": "Caf\u00e9 rallye tournelles", "comptoir": 1.0, "arrondissement": 75005, "adresse": "11 Quai de la Tournelle 75005 Paris", "terrasse": "-", "maj": "2013-08-14", "lat_lon": [48.8507246, 2.3526047]}},{"type": "Feature", "geometry": {"type": "Point", "coordinates": [2.3186696, 48.8894753]}, "properties": {"salle": "-", "nom": "Le Bloc", "comptoir": 1.0, "arrondissement": 75017, "adresse": "21 rue  Brochant 75017 Paris", "terrasse": "-", "maj": "2013-08-14", "lat_lon": [48.8894753, 2.3186696]}},{"type": "Feature", "geometry": {"type": "Point", "coordinates": [2.3860558, 48.8748714]}, "properties": {"salle": "1", "nom": "Chez Miamophile", "comptoir": 1.0, "arrondissement": 75019, "adresse": "6 rue M\u00e9lingue 75019 Paris", "terrasse": "1", "maj": "2013-08-14", "lat_lon": [48.8748714, 2.3860558]}},{"type": "Feature", "geometry": {"type": "Point", "coordinates": [2.4054396, 48.8747076]}, "properties": {"salle": "-", "nom": "La Recoleta au Manoir", "comptoir": 1.0, "arrondissement": 75020, "adresse": "229 avenue Gambetta 75020 Paris", "terrasse": "-", "maj": "2013-08-14", "lat_lon": [48.8747076, 2.4054396]}},{"type": "Feature", "geometry": {"type": "Point", "coordinates": [2.3235536, 48.8396528]}, "properties": {"salle": "1", "nom": "Le Plomb du cantal", "comptoir": 1.0, "arrondissement": 75014, "adresse": "3 rue Ga\u00eet\u00e9 75014 Paris", "terrasse": "-", "maj": "2012-10-22", "lat_lon": [48.8396528, 2.3235536]}},{"type": "Feature", "geometry": {"type": "Point", "coordinates": [2.3570365, 48.8783988]}, "properties": {"salle": "-", "nom": "Le sully", "comptoir": 1.0, "arrondissement": 75010, "adresse": "13 rue du Faubourg Saint Denis 75010 Paris", "terrasse": "-", "maj": "2012-06-27", "lat_lon": [48.8783988, 2.3570365]}},{"type": "Feature", "geometry": {"type": "Point", "coordinates": [2.3834233, 48.8532405]}, "properties": {"salle": "-", "nom": "Le Pure caf\u00e9", "comptoir": 1.0, "arrondissement": 75011, "adresse": "14 rue Jean Mac\u00e9 75011 Paris", "terrasse": "-", "maj": "2012-07-03", "lat_lon": [48.8532405, 2.3834233]}}]}