{"type":"FeatureCollection","features":[{"type": "Feature", "geometry": {"type": "Point", "coordinates": [2.3542832, 48.8627324]}, "properties": {"ville": "PARIS", "wgs84": [48.8627324, 2.3542832], "lon": "2.3542832", "adresse": "Rue Beaubourg", "lat": "48.8627324", "cp": 75191, "structure": "CENTRE NATIONAL D'ART ET DE CULTURE GEORGES POMPIDOU"}},{"type": "Feature", "geometry": {"type": "Point", "coordinates": [2.3266512, 48.8587739]}, "properties": {"ville": "PARIS", "wgs84": [48.8587739, 2.3266512], "lon": "2.3266512", "adresse": "53 rue de Verneuil", "lat": "48.8587739", "cp": 75343, "structure": "CENTRE NATIONAL DU LIVRE"}},{"type": "Feature", "geometry": {"type": "Point", "coordinates": [2.3908857, 48.8880461]}, "properties": {"ville": "PARIS", "wgs84": [48.8880461, 2.3908857], "lon": "2.3908857", "adresse": "209 avenue Jean Jaur\u00e8s", "lat": "48.8880461", "cp": 75019, "structure": "CONSERVATOIRE NATIONAL SUP\u00c9RIEUR DE MUSIQUE ET DE DANSE DE PARIS"}},{"type": "Feature", "geometry": {"type": "Point", "coordinates": [2.3741868, 48.8748165]}, "properties": {"ville": "PARIS", "wgs84": [48.8748165, 2.3741868], "lon": "2.3741868", "adresse": "60 boulevard de la Villette", "lat": "48.8748165", "cp": 75019, "structure": "ECOLE NATIONALE SUPERIEURE D'ARCHITECTURE DE PARIS BELLEVILLE"}},{"type": "Feature", "geometry": {"type": "Point", "coordinates": [2.3346182, 48.8566077]}, "properties": {"ville": "PARIS", "wgs84": [48.8566077, 2.3346182], "lon": "2.3346182", "adresse": "14 rue Bonaparte", "lat": "48.8566077", "cp": 75272, "structure": "\u00c9COLE NATIONALE SUP\u00c9RIEURE DES BEAUX-ARTS"}},{"type": "Feature", "geometry": {"type": "Point", "coordinates": [2.2935993, 48.8644775]}, "properties": {"ville": "PARIS", "wgs84": [48.8644775, 2.2935993], "lon": "2.2935993", "adresse": "6 place d'I\u00e9na", "lat": "48.8644775", "cp": 75116, "structure": "GUIMET MUS\u00c9E NATIONAL DES ARTS ASIATIQUES"}},{"type": "Feature", "geometry": {"type": "Point", "coordinates": [2.3391376, 48.8670298]}, "properties": {"ville": "PARIS", "cp": 75002, "wgs84": [48.8670298, 2.3391376], "lon": "2.3391376", "adresse": "2 rue Vivienne", "lat": "48.8670298", "adresse2": "Galerie Colbert", "structure": "INSTITUT NATIONAL DU PATRIMOINE"}},{"type": "Feature", "geometry": {"type": "Point", "coordinates": [2.3358613, 48.8544715]}, "properties": {"ville": "PARIS", "wgs84": [48.8544715, 2.3358613], "lon": "2.3358613", "adresse": "6 place de Furstenberg", "lat": "48.8544715", "cp": 75006, "structure": "MUSEE EUGENE DELACROIX"}},{"type": "Feature", "geometry": {"type": "Point", "coordinates": [2.370366, 48.82438]}, "properties": {"ville": "PARIS", "wgs84": [48.82438, 2.370366], "lon": "2.370366", "adresse": "30 rue du Ch\u00e2teau des Rentiers - CS 61336", "lat": "48.82438", "cp": 75647, "structure": "OP\u00c9RATEUR DU PATRIMOINE ET DES PROJETS IMMOBILIERS DE LA CULTURE (OPPIC)"}},{"type": "Feature", "geometry": {"type": "Point", "coordinates": [2.2878426, 48.8628656]}, "properties": {"ville": "PARIS", "wgs84": [48.8628656, 2.2878426], "lon": "2.2878426", "adresse": "1 place du Trocad\u00e9ro", "lat": "48.8628656", "cp": 75761, "structure": "THEATRE NATIONAL DE CHAILLOT"}},{"type": "Feature", "geometry": {"type": "Point", "coordinates": [2.3788746, 48.8328463]}, "properties": {"ville": "PARIS", "wgs84": [48.8328463, 2.3788746], "lon": "2.3788746", "adresse": "11 quai Fran\u00e7ois Mauriac", "lat": "48.8328463", "cp": 75706, "structure": "BIBLIOTH\u00c8QUE NATIONALE DE FRANCE"}},{"type": "Feature", "geometry": {"type": "Point", "coordinates": [2.23964, 48.884748]}, "properties": {"ville": "PARIS LA D\u00c9FENSE", "cp": 92911, "wgs84": [48.884748, 2.23964], "lon": "2.23964", "adresse": "Tour atlantique - 1er \u00e9tage", "lat": "48.884748", "adresse2": "1 place de la  Pyramide", "structure": "CENTRE NATIONAL DES ARTS PLASTIQUES"}},{"type": "Feature", "geometry": {"type": "Point", "coordinates": [2.3467328, 48.8721809]}, "properties": {"ville": "PARIS", "wgs84": [48.8721809, 2.3467328], "lon": "2.3467328", "adresse": "2 bis rue du Conservatoire", "lat": "48.8721809", "cp": 75009, "structure": "CONSERVATOIRE NATIONAL SUP\u00c9RIEUR D'ART DRAMATIQUE"}},{"type": "Feature", "geometry": {"type": "Point", "coordinates": [2.1270692, 48.8007927]}, "properties": {"ville": "VERSAILLES", "cp": 78006, "wgs84": [48.8007927, 2.1270692], "lon": "2.1270692", "adresse": "Petites \u00c9curies du Roy", "lat": "48.8007927", "adresse2": "5 avenue de Sceaux", "structure": "\u00c9COLE NATIONALE SUP\u00c9RIEURE D'ARCHITECTURE DE VERSAILLES"}},{"type": "Feature", "geometry": {"type": "Point", "coordinates": [2.344617, 48.8429858]}, "properties": {"ville": "PARIS", "wgs84": [48.8429858, 2.344617], "lon": "2.344617", "adresse": "31 rue d'Ulm", "lat": "48.8429858", "cp": 75240, "structure": "\u00c9COLE NATIONALE SUP\u00c9RIEURE DES ARTS D\u00c9CORATIFS"}},{"type": "Feature", "geometry": {"type": "Point", "coordinates": [2.3426507, 48.8900387]}, "properties": {"ville": "PARIS", "wgs84": [48.8900387, 2.3426507], "lon": "2.3426507", "adresse": "6 rue Francoeur", "lat": "48.8900387", "cp": 75018, "structure": "\u00c9COLE NATIONALE SUP\u00c9RIEURE DES M\u00c9TIERS DE L'IMAGE ET DU SON (FEMIS)"}},{"type": "Feature", "geometry": {"type": "Point", "coordinates": [2.6954891, 48.4028228]}, "properties": {"ville": "FONTAINEBLEAU", "wgs84": [48.4028228, 2.6954891], "lon": "2.6954891", "lat": "48.4028228", "cp": 77300, "structure": "MUSEE ET DOMAINE FONTAINEBLEAU"}},{"type": "Feature", "geometry": {"type": "Point", "coordinates": [2.315818, 48.855134]}, "properties": {"ville": "PARIS", "wgs84": [48.855134, 2.315818], "lon": "2.315818", "adresse": "77 rue de Varenne", "lat": "48.855134", "cp": 75007, "structure": "MUSEE RODIN"}},{"type": "Feature", "geometry": {"type": "Point", "coordinates": [2.3382466, 48.871467]}, "properties": {"ville": "PARIS", "wgs84": [48.871467, 2.3382466], "lon": "2.3382466", "adresse": "5 rue Favart", "lat": "48.871467", "cp": 75002, "structure": "TH\u00c9\u00c2TRE NATIONAL DE L'OP\u00c9RA-COMIQUE"}},{"type": "Feature", "geometry": {"type": "Point", "coordinates": [2.476739, 48.8450973]}, "properties": {"ville": "PARIS", "wgs84": [48.8450973, 2.476739], "lon": "2.476739", "adresse": "2 rue de Corneille", "lat": "48.8450973", "cp": 75006, "structure": "THEATRE EUROPE THEATRE NATIONAL ODEON"}},{"type": "Feature", "geometry": {"type": "Point", "coordinates": [2.3936148, 48.889174]}, "properties": {"ville": "PARIS", "wgs84": [48.889174, 2.3936148], "lon": "2.3936148", "adresse": "221 avenue Jean Jaur\u00e8s", "lat": "48.889174", "cp": 75019, "structure": "CIT\u00c9 DE LA MUSIQUE"}},{"type": "Feature", "geometry": {"type": "Point", "coordinates": [2.4085483, 48.8349606]}, "properties": {"ville": "PARIS", "cp": 75012, "wgs84": [48.8349606, 2.4085483], "lon": "2.4085483", "adresse": "Palais de la Porte Dor\u00e9e", "lat": "48.8349606", "adresse2": "293 avenue Daumesnil", "structure": "\u00c9TABLISSEMENT PUBLIC DE LA PORTE DOR\u00c9E - CIT\u00c9 NATIONALE DE L'HISTOIRE DE L'IMMIGRATION"}},{"type": "Feature", "geometry": {"type": "Point", "coordinates": [2.3259886, 48.8831051]}, "properties": {"ville": "PARIS", "wgs84": [48.8831051, 2.3259886], "lon": "2.3259886", "adresse": "9 boulevard des Batignolles", "lat": "48.8831051", "cp": 75008, "structure": "CENTRE NATIONAL DE LA CHANSON, DES VARI\u00c9T\u00c9S ET DU JAZZ"}},{"type": "Feature", "geometry": {"type": "Point", "coordinates": [2.3810515, 48.8936167]}, "properties": {"ville": "PARIS", "wgs84": [48.8936167, 2.3810515], "lon": "2.3810515", "adresse": "144 rue de Flandre", "lat": "48.8936167", "cp": 75019, "structure": "\u00c9COLE NATIONALE SUP\u00c9RIEURE D'ARCHITECTURE DE PARIS-LA VILLETTE"}},{"type": "Feature", "geometry": {"type": "Point", "coordinates": [2.3692883, 48.8583772]}, "properties": {"ville": "PARIS", "wgs84": [48.8583772, 2.3692883], "lon": "2.3692883", "adresse": "48 rue Saint-Sabin", "lat": "48.8583772", "cp": 75011, "structure": "\u00c9COLE NATIONALE SUP\u00c9RIEURE DE CR\u00c9ATION INDUSTRIELLE - LES ATELIERS"}},{"type": "Feature", "geometry": {"type": "Point", "coordinates": [2.3391376, 48.8670298]}, "properties": {"ville": "PARIS", "wgs84": [48.8670298, 2.3391376], "lon": "2.3391376", "adresse": "2 rue Vivienne", "lat": "48.8670298", "cp": 75084, "structure": "INSTITUT NATIONAL D'HISTOIRE DE L'ART"}},{"type": "Feature", "geometry": {"type": "Point", "coordinates": [2.3209124, 48.878436]}, "properties": {"ville": "PARIS", "wgs84": [48.878436, 2.3209124], "lon": "2.3209124", "adresse": "7 rue de Madrid", "lat": "48.878436", "cp": 75008, "structure": "INSTITUT NATIONAL DE RECHERCHES ARCH\u00c9OLOGIQUES PR\u00c9VENTIVES"}},{"type": "Feature", "geometry": {"type": "Point", "coordinates": [2.3344504, 48.8779704]}, "properties": {"ville": "PARIS", "wgs84": [48.8779704, 2.3344504], "lon": "2.3344504", "adresse": "14 rue de la Rochefoucauld", "lat": "48.8779704", "cp": 75009, "structure": "MUSEE GUSTAVE MOREAU"}},{"type": "Feature", "geometry": {"type": "Point", "coordinates": [2.3627328, 48.8597671]}, "properties": {"ville": "PARIS", "wgs84": [48.8597671, 2.3627328], "lon": "2.3627328", "adresse": "5 rue de Thorigny", "lat": "48.8597671", "cp": 75003, "structure": "\u00c9TABLISSEMENT PUBLIC DU MUS\u00c9E NATIONAL PICASSO PARIS"}},{"type": "Feature", "geometry": {"type": "Point", "coordinates": [2.3974737, 48.86472]}, "properties": {"ville": "PARIS", "wgs84": [48.86472, 2.3974737], "lon": "2.3974737", "adresse": "15-17 rue Malte Brun", "lat": "48.86472", "cp": 75020, "structure": "THEATRE NATIONAL DE LA COLLINE"}},{"type": "Feature", "geometry": {"type": "Point", "coordinates": [2.1217823, 48.8047201]}, "properties": {"ville": "VERSAILLES", "wgs84": [48.8047201, 2.1217823], "lon": "2.1217823", "adresse": "Ch\u00e2teau de Versailles", "lat": "48.8047201", "cp": 78008, "structure": "MUS\u00c9E ET DOMAINE NATIONAL DE VERSAILLES"}},{"type": "Feature", "geometry": {"type": "Point", "coordinates": [2.3522219, 48.856614]}, "properties": {"ville": "PARIS", "wgs84": [48.856614, 2.3522219], "lon": "2.3522219", "adresse": "CNAC Georges Pompidou", "lat": "48.856614", "cp": 75197, "structure": "BIBLIOTH\u00c8QUE PUBLIQUE D'INFORMATION"}},{"type": "Feature", "geometry": {"type": "Point", "coordinates": [2.2932042, 48.866165]}, "properties": {"ville": "PARIS", "wgs84": [48.866165, 2.2932042], "lon": "2.2932042", "adresse": "12 rue de L\u00fcbeck", "lat": "48.866165", "cp": 75116, "structure": "CENTRE NATIONAL DU CIN\u00c9MA ET DE L'IMAGE ANIM\u00c9E"}},{"type": "Feature", "geometry": {"type": "Point", "coordinates": [2.5902629, 48.8409806]}, "properties": {"ville": "MARNE-LA-VALL\u00c9E", "wgs84": [48.8409806, 2.5902629], "lon": "2.5902629", "adresse": "10-12 avenue Blaise Pascal - Champs sur Marne", "lat": "48.8409806", "cp": 77447, "structure": "\u00c9COLE NATIONALE SUP\u00c9RIEURE D'ARCHITECTURE DE MARNE-LA-VALL\u00c9E"}},{"type": "Feature", "geometry": {"type": "Point", "coordinates": [2.3855168, 48.8275505]}, "properties": {"ville": "PARIS", "wgs84": [48.8275505, 2.3855168], "lon": "2.3855168", "adresse": "3 quai Panhard et Levassor", "lat": "48.8275505", "cp": 75013, "structure": "\u00c9COLE NATIONALE SUP\u00c9RIEURE D'ARCHITECTURE DE PARIS-VAL-DE-SEINE"}},{"type": "Feature", "geometry": {"type": "Point", "coordinates": [2.0774855, 49.0363744]}, "properties": {"ville": "CERGY-PONTOISE", "cp": 95000, "wgs84": [49.0363744, 2.0774855], "lon": "2.0774855", "adresse": "Parvis de la Pr\u00e9fecture", "lat": "49.0363744", "adresse2": "2 rue des Italiens", "structure": "\u00c9COLE NATIONALE SUP\u00c9RIEURE D'ART DE CERGY-PONTOISE"}},{"type": "Feature", "geometry": {"type": "Point", "coordinates": [2.2242959, 48.8288502]}, "properties": {"ville": "S\u00c8VRES", "wgs84": [48.8288502, 2.2242959], "lon": "2.2242959", "adresse": "Place de la Manufacture", "lat": "48.8288502", "cp": 92310, "structure": "\u00c9TABLISSEMENT PUBLIC S\u00c8VRES - CIT\u00c9 DE LA C\u00c9RAMIQUE"}},{"type": "Feature", "geometry": {"type": "Point", "coordinates": [2.3359303, 48.8610061]}, "properties": {"ville": "PARIS", "wgs84": [48.8610061, 2.3359303], "lon": "2.3359303", "lat": "48.8610061", "cp": 75058, "structure": "MUSEE DU LOUVRE"}},{"type": "Feature", "geometry": {"type": "Point", "coordinates": [2.3255052, 48.8597825]}, "properties": {"ville": "PARIS", "wgs84": [48.8597825, 2.3255052], "lon": "2.3255052", "adresse": "62 rue de Lille", "lat": "48.8597825", "cp": 75007, "structure": "MUSEE ORSAY ORANGERIE"}},{"type": "Feature", "geometry": {"type": "Point", "coordinates": [2.3699078, 48.8514324]}, "properties": {"ville": "PARIS", "wgs84": [48.8514324, 2.3699078], "lon": "2.3699078", "adresse": "120 rue de Lyon", "lat": "48.8514324", "cp": 75012, "structure": "OP\u00c9RA NATIONAL DE PARIS"}},{"type": "Feature", "geometry": {"type": "Point", "coordinates": [2.3138045, 48.865895]}, "properties": {"ville": "PARIS", "cp": 75008, "wgs84": [48.865895, 2.3138045], "lon": "2.3138045", "adresse": "Avenue Winston Churchill", "lat": "48.865895", "adresse2": "Nef du Grand-Palais", "structure": "\u00c9TABLISSEMENT PUBLIC DE LA R\u00c9UNION DES MUS\u00c9ES NATIONAUX ET DU GRAND PALAIS DES CHAMPS-ELYS\u00c9ES"}},{"type": "Feature", "geometry": {"type": "Point", "coordinates": [2.2884999, 48.8626752]}, "properties": {"ville": "PARIS", "wgs84": [48.8626752, 2.2884999], "lon": "2.2884999", "adresse": "Palais de Chaillot - 1 Place du Trocad\u00e9ro et du 11 novembre", "lat": "48.8626752", "cp": 75116, "structure": "CIT\u00c9 DE L'ARCHITECTURE ET DU PATRIMOINE"}},{"type": "Feature", "geometry": {"type": "Point", "coordinates": [2.4021101, 48.89533]}, "properties": {"ville": "PANTIN", "wgs84": [48.89533, 2.4021101], "lon": "2.4021101", "adresse": "1 rue Victor Hugo", "lat": "48.89533", "cp": 93507, "structure": "CENTRE NATIONAL DE LA DANSE"}},{"type": "Feature", "geometry": {"type": "Point", "coordinates": [2.3358333, 48.8631944]}, "properties": {"ville": "PARIS", "wgs84": [48.8631944, 2.3358333], "lon": "2.3358333", "adresse": "Place Colette", "lat": "48.8631944", "cp": 75001, "structure": "COMEDIE-FRANCAISE"}},{"type": "Feature", "geometry": {"type": "Point", "coordinates": [2.3346182, 48.8566077]}, "properties": {"ville": "PARIS", "wgs84": [48.8566077, 2.3346182], "lon": "2.3346182", "adresse": "14 rue Bonaparte", "lat": "48.8566077", "cp": 75272, "structure": "\u00c9COLE NATIONALE SUP\u00c9RIEURE D'ARCHITECTURE PARIS-MALAQUAIS"}},{"type": "Feature", "geometry": {"type": "Point", "coordinates": [2.3345495, 48.861519]}, "properties": {"ville": "PARIS", "cp": 75038, "wgs84": [48.861519, 2.3345495], "lon": "2.3345495", "adresse": "Palais du Louvre - Porte Jaujard", "lat": "48.861519", "adresse2": "Place du Carrousel", "structure": "ECOLE DU LOUVRE"}},{"type": "Feature", "geometry": {"type": "Point", "coordinates": [2.394432, 48.8890923]}, "properties": {"ville": "PARIS", "wgs84": [48.8890923, 2.394432], "lon": "2.394432", "adresse": "211 avenue Jean Jaur\u00e8s", "lat": "48.8890923", "cp": 75019, "structure": "\u00c9TABLISSEMENT PUBLIC DU PARC ET DE LA GRANDE HALLE DE LA VILLETTE"}},{"type": "Feature", "geometry": {"type": "Point", "coordinates": [2.3637188, 48.8542941]}, "properties": {"ville": "PARIS", "cp": 75004, "wgs84": [48.8542941, 2.3637188], "lon": "2.3637188", "adresse": "H\u00f4tel de Bethune-Sully", "lat": "48.8542941", "adresse2": "62 rue Saint-Antoine", "structure": "CENTRE DES MONUMENTS NATIONAUX - MONUM"}},{"type": "Feature", "geometry": {"type": "Point", "coordinates": [2.3077136, 48.883074]}, "properties": {"ville": "PARIS", "wgs84": [48.883074, 2.3077136], "lon": "2.3077136", "adresse": "43 avenue de Villiers", "lat": "48.883074", "cp": 75017, "structure": "MUSEE HENNER"}},{"type": "Feature", "geometry": {"type": "Point", "coordinates": [2.2971984, 48.8600885]}, "properties": {"ville": "PARIS", "wgs84": [48.8600885, 2.2971984], "lon": "2.2971984", "adresse": "222 rue de l'Universit\u00e9", "lat": "48.8600885", "cp": 75007, "structure": "\u00c9TABLISSEMENT PUBLIC DU MUS\u00c9E DU QUAI BRANLY"}},{"type": "Feature", "geometry": {"type": "Point", "coordinates": [2.387059, 48.895985]}, "properties": {"ville": "PARIS", "wgs84": [48.895985, 2.387059], "lon": "2.387059", "adresse": "30 avenue Corentin Cariou", "lat": "48.895985", "cp": 75930, "structure": "\u00c9TABLISSEMENT PUBLIC DU PALAIS DE LA D\u00c9COUVERTE ET DE LA CIT\u00c9 DES SCIENCES ET DE L'INDUSTRIE - UNIVERSCIENCE"}}]}